{
"type": "FeatureCollection",
"crs": { "type": "name", "properties": { "name": "urn:ogc:def:crs:OGC:1.3:CRS84" } },
                                                                                
"features": [
{ "type": "Feature", "properties": { "Id": 0, "Lat": 0.000000, "Long": 0.000000, "Location": "East Halls", "Date": "2015\/01\/18", "IncidenNum": "PSU201500496" }, "geometry": { "type": "Point", "coordinates": [ -77.862585110408219, 40.806413488867094 ] } },
{ "type": "Feature", "properties": { "Id": 0, "Lat": 0.000000, "Long": 0.000000, "Location": "East Halls", "Date": "2015\/01\/31", "IncidenNum": "PSU201500497" }, "geometry": { "type": "Point", "coordinates": [ -77.862318909113284, 40.806140032713991 ] } },
{ "type": "Feature", "properties": { "Id": 0, "Lat": 0.000000, "Long": 0.000000, "Location": "East View Terrace", "Date": "2015\/02\/08", "IncidenNum": "PSU201500563" }, "geometry": { "type": "Point", "coordinates": [ -77.854215218800363, 40.801559474644179 ] } },
{ "type": "Feature", "properties": { "Id": 0, "Lat": 0.000000, "Long": 0.000000, "Location": "South Halls", "Date": "2015\/02\/15", "IncidenNum": "PSU201500667" }, "geometry": { "type": "Point", "coordinates": [ -77.856646682413796, 40.799011784726332 ] } },
{ "type": "Feature", "properties": { "Id": 0, "Lat": 0.000000, "Long": 0.000000, "Location": "East Halls", "Date": "2015\/01\/30", "IncidenNum": "PSU201500776" }, "geometry": { "type": "Point", "coordinates": [ -77.862286822350015, 40.806676149637347 ] } },
{ "type": "Feature", "properties": { "Id": 0, "Lat": 0.000000, "Long": 0.000000, "Location": "HHD Building", "Date": "2015\/03\/02", "IncidenNum": "PSU201500914" }, "geometry": { "type": "Point", "coordinates": [ -77.861468015688359, 40.796957009013447 ] } },
{ "type": "Feature", "properties": { "Id": 0, "Lat": 0.000000, "Long": 0.000000, "Location": "Pollock Halls", "Date": "2015\/04\/08", "IncidenNum": "PSU201501393" }, "geometry": { "type": "Point", "coordinates": [ -77.8575510537773, 40.80094415195623 ] } },
{ "type": "Feature", "properties": { "Id": 0, "Lat": 0.000000, "Long": 0.000000, "Location": "Katz Building", "Date": "2015\/04\/17", "IncidenNum": "PSU201501549" }, "geometry": { "type": "Point", "coordinates": [ -77.866278653375417, 40.807352586529362 ] } },
{ "type": "Feature", "properties": { "Id": 0, "Lat": 0.000000, "Long": 0.000000, "Location": "Pollock Halls", "Date": "2015\/04\/23", "IncidenNum": "PSU201501663" }, "geometry": { "type": "Point", "coordinates": [ -77.857769719126679, 40.801161854580712 ] } },
{ "type": "Feature", "properties": { "Id": 0, "Lat": 0.000000, "Long": 0.000000, "Location": "East Halls", "Date": "2015\/03\/18", "IncidenNum": "PSU201501675" }, "geometry": { "type": "Point", "coordinates": [ -77.861937195470674, 40.806454867244902 ] } },
{ "type": "Feature", "properties": { "Id": 0, "Lat": 0.000000, "Long": 0.000000, "Location": "Park Ave IM Fields", "Date": "2015\/05\/01", "IncidenNum": "PSU201501817" }, "geometry": { "type": "Point", "coordinates": [ -77.864333007124984, 40.809261324044428 ] } },
{ "type": "Feature", "properties": { "Id": 0, "Lat": 0.000000, "Long": 0.000000, "Location": "Nittany Lion Shrine", "Date": "2015\/07\/10", "IncidenNum": "PSU201502364" }, "geometry": { "type": "Point", "coordinates": [ -77.868933892462309, 40.796824040160779 ] } },
{ "type": "Feature", "properties": { "Id": 0, "Lat": 0.000000, "Long": 0.000000, "Location": "Pollock Halls", "Date": "2015\/07\/12", "IncidenNum": "PSU201502408" }, "geometry": { "type": "Point", "coordinates": [ -77.857534772725828, 40.801399977267138 ] } },
{ "type": "Feature", "properties": { "Id": 0, "Lat": 0.000000, "Long": 0.000000, "Location": "Nittany Apartments", "Date": "2015\/07\/10", "IncidenNum": "PSU201502441" }, "geometry": { "type": "Point", "coordinates": [ -77.856888283866738, 40.802797480154567 ] } },
{ "type": "Feature", "properties": { "Id": 0, "Lat": 0.000000, "Long": 0.000000, "Location": "Simmons Hall", "Date": "2015\/07\/31", "IncidenNum": "PSU201502531" }, "geometry": { "type": "Point", "coordinates": [ -77.858276333476013, 40.799533745521039 ] } },
{ "type": "Feature", "properties": { "Id": 0, "Lat": 0.000000, "Long": 0.000000, "Location": "Sackett Building", "Date": "2015\/09\/04", "IncidenNum": "PSU201502936" }, "geometry": { "type": "Point", "coordinates": [ -77.862618742099457, 40.79482137806847 ] } },
{ "type": "Feature", "properties": { "Id": 0, "Lat": 0.000000, "Long": 0.000000, "Location": "West Halls", "Date": "2015\/09\/13", "IncidenNum": "PSU201503109" }, "geometry": { "type": "Point", "coordinates": [ -77.866736543380384, 40.796202375689738 ] } },
{ "type": "Feature", "properties": { "Id": 0, "Lat": 0.000000, "Long": 0.000000, "Location": "East Halls", "Date": "2015\/09\/16", "IncidenNum": "PSU201503177" }, "geometry": { "type": "Point", "coordinates": [ -77.862753031145573, 40.806699717349886 ] } },
{ "type": "Feature", "properties": { "Id": 0, "Lat": 0.000000, "Long": 0.000000, "Location": "Johnston Commons - East Halls", "Date": "2014\/11\/07", "IncidenNum": "PSU201404521" }, "geometry": { "type": "Point", "coordinates": [ -77.86170724034406, 40.806034068407591 ] } },
{ "type": "Feature", "properties": { "Id": 0, "Lat": 0.000000, "Long": 0.000000, "Location": "West Halls", "Date": "2014\/10\/25", "IncidenNum": "PSU201404276" }, "geometry": { "type": "Point", "coordinates": [ -77.866479849274612, 40.796336425395026 ] } },
{ "type": "Feature", "properties": { "Id": 0, "Lat": 0.000000, "Long": 0.000000, "Location": "Stone Hall - East Halls", "Date": "2014\/10\/12", "IncidenNum": "PSU201404002" }, "geometry": { "type": "Point", "coordinates": [ -77.861745269100538, 40.807052328678999 ] } },
{ "type": "Feature", "properties": { "Id": 0, "Lat": 0.000000, "Long": 0.000000, "Location": "West College Ave near Hammond Building", "Date": "2014\/09\/19", "IncidenNum": "PSU201403444" }, "geometry": { "type": "Point", "coordinates": [ -77.862156455029321, 40.794130418639305 ] } },
{ "type": "Feature", "properties": { "Id": 0, "Lat": 0.000000, "Long": 0.000000, "Location": "South Halls", "Date": "2014\/09\/06", "IncidenNum": "PSU201403166" }, "geometry": { "type": "Point", "coordinates": [ -77.857193306183831, 40.798584341644855 ] } },
{ "type": "Feature", "properties": { "Id": 0, "Lat": 0.000000, "Long": 0.000000, "Location": "intersection of Porter and Curtin Road", "Date": "2014\/08\/31", "IncidenNum": "PSU201403026" }, "geometry": { "type": "Point", "coordinates": [ -77.854100934474388, 40.812327362370375 ] } },
{ "type": "Feature", "properties": { "Id": 0, "Lat": 0.000000, "Long": 0.000000, "Location": "Pollock Halls", "Date": "2014\/08\/09", "IncidenNum": "none given" }, "geometry": { "type": "Point", "coordinates": [ -77.857127072766446, 40.801216969828545 ] } },
{ "type": "Feature", "properties": { "Id": 0, "Lat": 0.000000, "Long": 0.000000, "Location": "South Halls", "Date": "2014\/08\/09", "IncidenNum": "PSU201402715" }, "geometry": { "type": "Point", "coordinates": [ -77.857051015253617, 40.799209762224841 ] } },
{ "type": "Feature", "properties": { "Id": 0, "Lat": 0.000000, "Long": 0.000000, "Location": "Business Building", "Date": "2014\/05\/18", "IncidenNum": "PSU201402123" }, "geometry": { "type": "Point", "coordinates": [ -77.865412588071166, 40.803995581936157 ] } },
{ "type": "Feature", "properties": { "Id": 0, "Lat": 0.000000, "Long": 0.000000, "Location": "McElwain Hall- South Halls", "Date": "2014\/05\/03", "IncidenNum": "PSU201401949" }, "geometry": { "type": "Point", "coordinates": [ -77.859190132802141, 40.80003381141421 ] } },
{ "type": "Feature", "properties": { "Id": 0, "Lat": 0.000000, "Long": 0.000000, "Location": "Nittany Apartments", "Date": "2014\/03\/22", "IncidenNum": "PSU201401179" }, "geometry": { "type": "Point", "coordinates": [ -77.8566922674148, 40.803073528848472 ] } },
{ "type": "Feature", "properties": { "Id": 0, "Lat": 0.000000, "Long": 0.000000, "Location": "North Halls", "Date": "2014\/02\/05", "IncidenNum": "PSU201400486" }, "geometry": { "type": "Point", "coordinates": [ -77.867148987031086, 40.802307990162177 ] } },
{ "type": "Feature", "properties": { "Id": 0, "Lat": 0.000000, "Long": 0.000000, "Location": "West College Avenue, south of Hammond Building", "Date": "2014\/01\/18", "IncidenNum": "none given" }, "geometry": { "type": "Point", "coordinates": [ -77.862463725400573, 40.793901326814179 ] } },
{ "type": "Feature", "properties": { "Id": 0, "Lat": 0.000000, "Long": 0.000000, "Location": "Pollock Halls", "Date": "2015\/10\/01", "IncidenNum": "PSU201601459" }, "geometry": { "type": "Point", "coordinates": [ -77.857187116607804, 40.801562953317493 ] } },
{ "type": "Feature", "properties": { "Id": 0, "Lat": 0.000000, "Long": 0.000000, "Location": "Innovation Park", "Date": "2013\/01\/01", "IncidenNum": "PSU201304083" }, "geometry": { "type": "Point", "coordinates": [ -77.844730505294734, 40.83133389908803 ] } }
]
}
